[
  {
    "id": 1,
    "name": "Baga Beach",
    "state": "Goa",
    "lat": 15.5553,
    "lon": 73.7517,
    "popularity": "medium"
  },
  {
    "id": 2,
    "name": "Calangute Beach",
    "state": "Goa",
    "lat": 15.5494,
    "lon": 73.7536,
    "popularity": "low"
  },
  {
    "id": 3,
    "name": "Anjuna Beach",
    "state": "Goa",
    "lat": 15.5793,
    "lon": 73.7384,
    "popularity": "medium"
  },
  {
    "id": 4,
    "name": "Vagator Beach",
    "state": "Goa",
    "lat": 15.603,
    "lon": 73.7336,
    "popularity": "medium"
  },
  {
    "id": 5,
    "name": "Palolem Beach",
    "state": "Goa",
    "lat": 15.01,
    "lon": 74.0232,
    "popularity": "medium"
  },
  {
    "id": 6,
    "name": "Arambol Beach",
    "state": "Goa",
    "lat": 15.6847,
    "lon": 73.7033,
    "popularity": "low"
  },
  {
    "id": 7,
    "name": "Morjim Beach",
    "state": "Goa",
    "lat": 15.6174,
    "lon": 73.7338,
    "popularity": "low"
  },
  {
    "id": 8,
    "name": "Colva Beach",
    "state": "Goa",
    "lat": 15.2813,
    "lon": 73.9105,
    "popularity": "medium"
  },
  {
    "id": 9,
    "name": "Benaulim Beach",
    "state": "Goa",
    "lat": 15.2588,
    "lon": 73.9189,
    "popularity": "high"
  },
  {
    "id": 10,
    "name": "Agonda Beach",
    "state": "Goa",
    "lat": 15.0427,
    "lon": 73.9877,
    "popularity": "high"
  },
  {
    "id": 11,
    "name": "Kovalam Beach",
    "state": "Kerala",
    "lat": 8.3988,
    "lon": 76.9785,
    "popularity": "medium"
  },
  {
    "id": 12,
    "name": "Varkala Beach",
    "state": "Kerala",
    "lat": 8.7339,
    "lon": 76.7067,
    "popularity": "medium"
  },
  {
    "id": 13,
    "name": "Marari Beach",
    "state": "Kerala",
    "lat": 9.596,
    "lon": 76.3006,
    "popularity": "high"
  },
  {
    "id": 14,
    "name": "Cherai Beach",
    "state": "Kerala",
    "lat": 10.1416,
    "lon": 76.1783,
    "popularity": "high"
  },
  {
    "id": 15,
    "name": "Bekal Beach",
    "state": "Kerala",
    "lat": 12.3942,
    "lon": 75.0298,
    "popularity": "medium"
  },
  {
    "id": 16,
    "name": "Muzhappilangad Beach",
    "state": "Kerala",
    "lat": 11.7928,
    "lon": 75.4484,
    "popularity": "high"
  },
  {
    "id": 17,
    "name": "Alappuzha Beach",
    "state": "Kerala",
    "lat": 9.4981,
    "lon": 76.3262,
    "popularity": "low"
  },
  {
    "id": 18,
    "name": "Gokarna Beach",
    "state": "Karnataka",
    "lat": 14.5427,
    "lon": 74.3168,
    "popularity": "low"
  },
  {
    "id": 19,
    "name": "Om Beach",
    "state": "Karnataka",
    "lat": 14.5192,
    "lon": 74.3187,
    "popularity": "medium"
  },
  {
    "id": 20,
    "name": "Kudle Beach",
    "state": "Karnataka",
    "lat": 14.5303,
    "lon": 74.3142,
    "popularity": "medium"
  },
  {
    "id": 21,
    "name": "Murudeshwar Beach",
    "state": "Karnataka",
    "lat": 14.0939,
    "lon": 74.4849,
    "popularity": "low"
  },
  {
    "id": 22,
    "name": "Malpe Beach",
    "state": "Karnataka",
    "lat": 13.3512,
    "lon": 74.6998,
    "popularity": "high"
  },
  {
    "id": 23,
    "name": "Maravanthe Beach",
    "state": "Karnataka",
    "lat": 13.7196,
    "lon": 74.6341,
    "popularity": "low"
  },
  {
    "id": 24,
    "name": "Marina Beach",
    "state": "Tamil Nadu",
    "lat": 13.05,
    "lon": 80.2824,
    "popularity": "low"
  },
  {
    "id": 25,
    "name": "Elliot's Beach",
    "state": "Tamil Nadu",
    "lat": 12.9996,
    "lon": 80.2709,
    "popularity": "low"
  },
  {
    "id": 26,
    "name": "Mahabalipuram Beach",
    "state": "Tamil Nadu",
    "lat": 12.6196,
    "lon": 80.1983,
    "popularity": "high"
  },
  {
    "id": 27,
    "name": "Kanyakumari Beach",
    "state": "Tamil Nadu",
    "lat": 8.0833,
    "lon": 77.55,
    "popularity": "low"
  },
  {
    "id": 28,
    "name": "Dhanushkodi Beach",
    "state": "Tamil Nadu",
    "lat": 9.2274,
    "lon": 79.3142,
    "popularity": "medium"
  },
  {
    "id": 29,
    "name": "Juhu Beach",
    "state": "Maharashtra",
    "lat": 19.0988,
    "lon": 72.8267,
    "popularity": "high"
  },
  {
    "id": 30,
    "name": "Alibaug Beach",
    "state": "Maharashtra",
    "lat": 18.6414,
    "lon": 72.8722,
    "popularity": "low"
  },
  {
    "id": 31,
    "name": "Kashid Beach",
    "state": "Maharashtra",
    "lat": 18.4357,
    "lon": 72.8988,
    "popularity": "high"
  },
  {
    "id": 32,
    "name": "Ganpatipule Beach",
    "state": "Maharashtra",
    "lat": 17.1432,
    "lon": 73.2687,
    "popularity": "medium"
  },
  {
    "id": 33,
    "name": "Tarkarli Beach",
    "state": "Maharashtra",
    "lat": 16.0357,
    "lon": 73.48,
    "popularity": "medium"
  },
  {
    "id": 34,
    "name": "Puri Beach",
    "state": "Odisha",
    "lat": 19.7983,
    "lon": 85.8245,
    "popularity": "medium"
  },
  {
    "id": 35,
    "name": "Chandipur Beach",
    "state": "Odisha",
    "lat": 21.4428,
    "lon": 87.018,
    "popularity": "high"
  },
  {
    "id": 36,
    "name": "Gopalpur Beach",
    "state": "Odisha",
    "lat": 19.2612,
    "lon": 84.908,
    "popularity": "high"
  },
  {
    "id": 37,
    "name": "Chandrabhaga Beach",
    "state": "Odisha",
    "lat": 19.8669,
    "lon": 86.1154,
    "popularity": "medium"
  },
  {
    "id": 38,
    "name": "Radhanagar Beach",
    "state": "Andaman",
    "lat": 11.9839,
    "lon": 92.9507,
    "popularity": "high"
  },
  {
    "id": 39,
    "name": "Elephant Beach",
    "state": "Andaman",
    "lat": 12.0016,
    "lon": 92.9431,
    "popularity": "medium"
  },
  {
    "id": 40,
    "name": "Corbyn's Cove Beach",
    "state": "Andaman",
    "lat": 11.6371,
    "lon": 92.7483,
    "popularity": "high"
  },
  {
    "id": 41,
    "name": "Digha Beach",
    "state": "West Bengal",
    "lat": 21.6266,
    "lon": 87.5074,
    "popularity": "low"
  },
  {
    "id": 42,
    "name": "Mandarmani Beach",
    "state": "West Bengal",
    "lat": 21.6669,
    "lon": 87.6833,
    "popularity": "low"
  },
  {
    "id": 43,
    "name": "Tajpur Beach",
    "state": "West Bengal",
    "lat": 21.6545,
    "lon": 87.6047,
    "popularity": "high"
  },
  {
    "name": "Rushikonda Beach",
    "state": "Andhra Pradesh",
    "lat": 17.7833,
    "lon": 83.385,
    "crowd": "moderate",
    "waveHeight": 1.2,
    "temp": 30,
    "popularity": "medium",
    "id": 44
  },
  {
    "name": "Yarada Beach",
    "state": "Andhra Pradesh",
    "lat": 17.658,
    "lon": 83.267,
    "crowd": "moderate",
    "waveHeight": 1.2,
    "temp": 30,
    "popularity": "medium",
    "id": 45
  },
  {
    "name": "Kakinada Beach",
    "state": "Andhra Pradesh",
    "lat": 16.9891,
    "lon": 82.2475,
    "crowd": "moderate",
    "waveHeight": 1.2,
    "temp": 30,
    "popularity": "medium",
    "id": 46
  }
]