[
  {
    "id": 1,
    "name": "Baga Beach",
    "state": "Goa",
    "lat": 14.9952,
    "lon": 74.3821,
    "popularity": "medium"
  },
  {
    "id": 2,
    "name": "Calangute Beach",
    "state": "Goa",
    "lat": 16.0583,
    "lon": 74.1709,
    "popularity": "high"
  },
  {
    "id": 3,
    "name": "Anjuna Beach",
    "state": "Goa",
    "lat": 14.7739,
    "lon": 73.3953,
    "popularity": "low"
  },
  {
    "id": 4,
    "name": "Vagator Beach",
    "state": "Goa",
    "lat": 14.7458,
    "lon": 74.2552,
    "popularity": "low"
  },
  {
    "id": 5,
    "name": "Palolem Beach",
    "state": "Goa",
    "lat": 15.756,
    "lon": 73.879,
    "popularity": "low"
  },
  {
    "id": 6,
    "name": "Arambol Beach",
    "state": "Goa",
    "lat": 14.7043,
    "lon": 73.3807,
    "popularity": "low"
  },
  {
    "id": 7,
    "name": "Morjim Beach",
    "state": "Goa",
    "lat": 15.5221,
    "lon": 73.9197,
    "popularity": "medium"
  },
  {
    "id": 8,
    "name": "Ashwem Beach",
    "state": "Goa",
    "lat": 15.6925,
    "lon": 74.7675,
    "popularity": "high"
  },
  {
    "id": 9,
    "name": "Colva Beach",
    "state": "Goa",
    "lat": 14.6752,
    "lon": 73.6411,
    "popularity": "low"
  },
  {
    "id": 10,
    "name": "Benaulim Beach",
    "state": "Goa",
    "lat": 15.0566,
    "lon": 75.067,
    "popularity": "high"
  },
  {
    "id": 11,
    "name": "Majorda Beach",
    "state": "Goa",
    "lat": 15.8833,
    "lon": 74.1607,
    "popularity": "medium"
  },
  {
    "id": 12,
    "name": "Mobor Beach",
    "state": "Goa",
    "lat": 15.6436,
    "lon": 73.6083,
    "popularity": "medium"
  },
  {
    "id": 13,
    "name": "Cavelossim Beach",
    "state": "Goa",
    "lat": 15.7714,
    "lon": 73.3046,
    "popularity": "high"
  },
  {
    "id": 14,
    "name": "Butterfly Beach",
    "state": "Goa",
    "lat": 15.1855,
    "lon": 73.3855,
    "popularity": "low"
  },
  {
    "id": 15,
    "name": "Kakolem Beach",
    "state": "Goa",
    "lat": 15.1904,
    "lon": 74.0305,
    "popularity": "high"
  },
  {
    "id": 16,
    "name": "Galgibaga Beach",
    "state": "Goa",
    "lat": 15.9979,
    "lon": 73.9928,
    "popularity": "low"
  },
  {
    "id": 17,
    "name": "Agonda Beach",
    "state": "Goa",
    "lat": 15.6205,
    "lon": 73.4035,
    "popularity": "medium"
  },
  {
    "id": 18,
    "name": "Miramar Beach",
    "state": "Goa",
    "lat": 16.1108,
    "lon": 75.1013,
    "popularity": "medium"
  },
  {
    "id": 19,
    "name": "Dona Paula Beach",
    "state": "Goa",
    "lat": 15.3771,
    "lon": 74.1072,
    "popularity": "medium"
  },
  {
    "id": 20,
    "name": "Sinquerim Beach",
    "state": "Goa",
    "lat": 15.4268,
    "lon": 73.2365,
    "popularity": "high"
  },
  {
    "id": 21,
    "name": "Kovalam Beach",
    "state": "Kerala",
    "lat": 10.2612,
    "lon": 76.5498,
    "popularity": "low"
  },
  {
    "id": 22,
    "name": "Varkala Beach",
    "state": "Kerala",
    "lat": 10.63,
    "lon": 77.0218,
    "popularity": "medium"
  },
  {
    "id": 23,
    "name": "Marari Beach",
    "state": "Kerala",
    "lat": 10.4374,
    "lon": 76.3511,
    "popularity": "medium"
  },
  {
    "id": 24,
    "name": "Cherai Beach",
    "state": "Kerala",
    "lat": 10.5059,
    "lon": 76.744,
    "popularity": "medium"
  },
  {
    "id": 25,
    "name": "Bekal Beach",
    "state": "Kerala",
    "lat": 9.9966,
    "lon": 76.5101,
    "popularity": "medium"
  },
  {
    "id": 26,
    "name": "Kappad Beach",
    "state": "Kerala",
    "lat": 9.9078,
    "lon": 75.6036,
    "popularity": "low"
  },
  {
    "id": 27,
    "name": "Muzhappilangad Beach",
    "state": "Kerala",
    "lat": 11.8024,
    "lon": 75.8792,
    "popularity": "low"
  },
  {
    "id": 28,
    "name": "Payyambalam Beach",
    "state": "Kerala",
    "lat": 10.079,
    "lon": 76.1554,
    "popularity": "low"
  },
  {
    "id": 29,
    "name": "Alappuzha Beach",
    "state": "Kerala",
    "lat": 11.6569,
    "lon": 75.5766,
    "popularity": "high"
  },
  {
    "id": 30,
    "name": "Kollam Beach",
    "state": "Kerala",
    "lat": 10.7996,
    "lon": 76.1413,
    "popularity": "low"
  },
  {
    "id": 31,
    "name": "Thirumullavaram Beach",
    "state": "Kerala",
    "lat": 10.0554,
    "lon": 75.6206,
    "popularity": "high"
  },
  {
    "id": 32,
    "name": "Shankumugham Beach",
    "state": "Kerala",
    "lat": 10.2389,
    "lon": 75.7351,
    "popularity": "medium"
  },
  {
    "id": 33,
    "name": "Chowara Beach",
    "state": "Kerala",
    "lat": 11.666,
    "lon": 76.3041,
    "popularity": "medium"
  },
  {
    "id": 34,
    "name": "Nattika Beach",
    "state": "Kerala",
    "lat": 11.7581,
    "lon": 75.2715,
    "popularity": "low"
  },
  {
    "id": 35,
    "name": "Andhakaranazhi Beach",
    "state": "Kerala",
    "lat": 9.8786,
    "lon": 75.6679,
    "popularity": "high"
  },
  {
    "id": 36,
    "name": "Meenkunnu Beach",
    "state": "Kerala",
    "lat": 11.5832,
    "lon": 76.1463,
    "popularity": "high"
  },
  {
    "id": 37,
    "name": "Kizhunna Beach",
    "state": "Kerala",
    "lat": 10.6481,
    "lon": 75.4288,
    "popularity": "medium"
  },
  {
    "id": 38,
    "name": "Kanwatheertha Beach",
    "state": "Kerala",
    "lat": 11.2965,
    "lon": 76.1269,
    "popularity": "low"
  },
  {
    "id": 39,
    "name": "Valiyaparamba Beach",
    "state": "Kerala",
    "lat": 10.2898,
    "lon": 76.6143,
    "popularity": "low"
  },
  {
    "id": 40,
    "name": "Padinjarekara Beach",
    "state": "Kerala",
    "lat": 10.335,
    "lon": 75.4285,
    "popularity": "low"
  },
  {
    "id": 41,
    "name": "Gokarna Beach",
    "state": "Karnataka",
    "lat": 16.1275,
    "lon": 75.508,
    "popularity": "medium"
  },
  {
    "id": 42,
    "name": "Om Beach",
    "state": "Karnataka",
    "lat": 15.2945,
    "lon": 75.9878,
    "popularity": "high"
  },
  {
    "id": 43,
    "name": "Kudle Beach",
    "state": "Karnataka",
    "lat": 14.7064,
    "lon": 76.3819,
    "popularity": "high"
  },
  {
    "id": 44,
    "name": "Half Moon Beach",
    "state": "Karnataka",
    "lat": 16.2616,
    "lon": 76.6619,
    "popularity": "low"
  },
  {
    "id": 45,
    "name": "Paradise Beach",
    "state": "Karnataka",
    "lat": 15.5406,
    "lon": 76.1973,
    "popularity": "low"
  },
  {
    "id": 46,
    "name": "Murudeshwar Beach",
    "state": "Karnataka",
    "lat": 14.6397,
    "lon": 75.2717,
    "popularity": "medium"
  },
  {
    "id": 47,
    "name": "Kaup Beach",
    "state": "Karnataka",
    "lat": 16.1529,
    "lon": 75.6904,
    "popularity": "high"
  },
  {
    "id": 48,
    "name": "Malpe Beach",
    "state": "Karnataka",
    "lat": 15.3102,
    "lon": 75.1577,
    "popularity": "medium"
  },
  {
    "id": 49,
    "name": "Maravanthe Beach",
    "state": "Karnataka",
    "lat": 14.3243,
    "lon": 75.2752,
    "popularity": "high"
  },
  {
    "id": 50,
    "name": "Surathkal Beach",
    "state": "Karnataka",
    "lat": 15.4017,
    "lon": 76.6691,
    "popularity": "medium"
  },
  {
    "id": 51,
    "name": "Tannirbhavi Beach",
    "state": "Karnataka",
    "lat": 14.8199,
    "lon": 75.1614,
    "popularity": "high"
  },
  {
    "id": 52,
    "name": "Panambur Beach",
    "state": "Karnataka",
    "lat": 15.2946,
    "lon": 75.1954,
    "popularity": "low"
  },
  {
    "id": 53,
    "name": "Someshwara Beach",
    "state": "Karnataka",
    "lat": 16.287,
    "lon": 76.3625,
    "popularity": "low"
  },
  {
    "id": 54,
    "name": "Karwar Beach",
    "state": "Karnataka",
    "lat": 14.8639,
    "lon": 75.0237,
    "popularity": "high"
  },
  {
    "id": 55,
    "name": "Devbagh Beach",
    "state": "Karnataka",
    "lat": 15.556,
    "lon": 76.2713,
    "popularity": "high"
  },
  {
    "id": 56,
    "name": "Marina Beach",
    "state": "Tamil Nadu",
    "lat": 11.7565,
    "lon": 78.9943,
    "popularity": "high"
  },
  {
    "id": 57,
    "name": "Elliot's Beach",
    "state": "Tamil Nadu",
    "lat": 11.5984,
    "lon": 77.8131,
    "popularity": "high"
  },
  {
    "id": 58,
    "name": "Mahabalipuram Beach",
    "state": "Tamil Nadu",
    "lat": 11.9922,
    "lon": 78.5844,
    "popularity": "high"
  },
  {
    "id": 59,
    "name": "Kanyakumari Beach",
    "state": "Tamil Nadu",
    "lat": 10.8115,
    "lon": 78.4698,
    "popularity": "high"
  },
  {
    "id": 60,
    "name": "Dhanushkodi Beach",
    "state": "Tamil Nadu",
    "lat": 10.518,
    "lon": 78.1352,
    "popularity": "low"
  },
  {
    "id": 61,
    "name": "Covelong Beach",
    "state": "Tamil Nadu",
    "lat": 11.0553,
    "lon": 79.3183,
    "popularity": "low"
  },
  {
    "id": 62,
    "name": "Silver Beach",
    "state": "Tamil Nadu",
    "lat": 11.2243,
    "lon": 79.2101,
    "popularity": "low"
  },
  {
    "id": 63,
    "name": "Auroville Beach",
    "state": "Tamil Nadu",
    "lat": 11.2211,
    "lon": 79.5821,
    "popularity": "medium"
  },
  {
    "id": 64,
    "name": "Pichavaram Beach",
    "state": "Tamil Nadu",
    "lat": 12.0286,
    "lon": 78.2664,
    "popularity": "medium"
  },
  {
    "id": 65,
    "name": "Poompuhar Beach",
    "state": "Tamil Nadu",
    "lat": 12.0229,
    "lon": 78.1138,
    "popularity": "high"
  },
  {
    "id": 66,
    "name": "Muttukadu Beach",
    "state": "Tamil Nadu",
    "lat": 10.6363,
    "lon": 79.6466,
    "popularity": "high"
  },
  {
    "id": 67,
    "name": "VGP Golden Beach",
    "state": "Tamil Nadu",
    "lat": 11.4472,
    "lon": 78.6262,
    "popularity": "high"
  },
  {
    "id": 68,
    "name": "Breezy Beach",
    "state": "Tamil Nadu",
    "lat": 11.0826,
    "lon": 78.7763,
    "popularity": "high"
  },
  {
    "id": 69,
    "name": "Thiruchendur Beach",
    "state": "Tamil Nadu",
    "lat": 11.3587,
    "lon": 78.0922,
    "popularity": "low"
  },
  {
    "id": 70,
    "name": "Muttom Beach",
    "state": "Tamil Nadu",
    "lat": 11.2858,
    "lon": 77.8689,
    "popularity": "low"
  },
  {
    "id": 71,
    "name": "Juhu Beach",
    "state": "Maharashtra",
    "lat": 19.136,
    "lon": 76.7079,
    "popularity": "high"
  },
  {
    "id": 72,
    "name": "Marine Drive Beach",
    "state": "Maharashtra",
    "lat": 19.77,
    "lon": 75.5863,
    "popularity": "medium"
  },
  {
    "id": 73,
    "name": "Alibaug Beach",
    "state": "Maharashtra",
    "lat": 19.6894,
    "lon": 74.826,
    "popularity": "medium"
  },
  {
    "id": 74,
    "name": "Kashid Beach",
    "state": "Maharashtra",
    "lat": 19.5742,
    "lon": 75.4608,
    "popularity": "medium"
  },
  {
    "id": 75,
    "name": "Murud Beach",
    "state": "Maharashtra",
    "lat": 19.5229,
    "lon": 76.5277,
    "popularity": "high"
  },
  {
    "id": 76,
    "name": "Diveagar Beach",
    "state": "Maharashtra",
    "lat": 19.5253,
    "lon": 76.1889,
    "popularity": "high"
  },
  {
    "id": 77,
    "name": "Harihareshwar Beach",
    "state": "Maharashtra",
    "lat": 19.0757,
    "lon": 75.2184,
    "popularity": "low"
  },
  {
    "id": 78,
    "name": "Ganpatipule Beach",
    "state": "Maharashtra",
    "lat": 19.0521,
    "lon": 75.3264,
    "popularity": "medium"
  },
  {
    "id": 79,
    "name": "Tarkarli Beach",
    "state": "Maharashtra",
    "lat": 19.1192,
    "lon": 75.1677,
    "popularity": "medium"
  },
  {
    "id": 80,
    "name": "Malvan Beach",
    "state": "Maharashtra",
    "lat": 18.7901,
    "lon": 75.2632,
    "popularity": "medium"
  },
  {
    "id": 81,
    "name": "Velneshwar Beach",
    "state": "Maharashtra",
    "lat": 18.9607,
    "lon": 75.2546,
    "popularity": "low"
  },
  {
    "id": 82,
    "name": "Guhagar Beach",
    "state": "Maharashtra",
    "lat": 19.6048,
    "lon": 76.5787,
    "popularity": "high"
  },
  {
    "id": 83,
    "name": "Kelva Beach",
    "state": "Maharashtra",
    "lat": 20.4794,
    "lon": 76.525,
    "popularity": "medium"
  },
  {
    "id": 84,
    "name": "Bordi Beach",
    "state": "Maharashtra",
    "lat": 20.5116,
    "lon": 75.5758,
    "popularity": "high"
  },
  {
    "id": 85,
    "name": "Gorai Beach",
    "state": "Maharashtra",
    "lat": 19.9074,
    "lon": 76.5616,
    "popularity": "medium"
  },
  {
    "id": 86,
    "name": "Puri Beach",
    "state": "Odisha",
    "lat": 21.9228,
    "lon": 84.4842,
    "popularity": "low"
  },
  {
    "id": 87,
    "name": "Chandipur Beach",
    "state": "Odisha",
    "lat": 20.5381,
    "lon": 85.3627,
    "popularity": "high"
  },
  {
    "id": 88,
    "name": "Konark Beach",
    "state": "Odisha",
    "lat": 20.369,
    "lon": 84.8362,
    "popularity": "high"
  },
  {
    "id": 89,
    "name": "Gopalpur Beach",
    "state": "Odisha",
    "lat": 20.7481,
    "lon": 84.5562,
    "popularity": "high"
  },
  {
    "id": 90,
    "name": "Aryapalli Beach",
    "state": "Odisha",
    "lat": 21.152,
    "lon": 84.5091,
    "popularity": "low"
  },
  {
    "id": 91,
    "name": "Balaramgadi Beach",
    "state": "Odisha",
    "lat": 20.1092,
    "lon": 85.6572,
    "popularity": "low"
  },
  {
    "id": 92,
    "name": "Bhitarkanika Beach",
    "state": "Odisha",
    "lat": 20.6934,
    "lon": 84.581,
    "popularity": "low"
  },
  {
    "id": 93,
    "name": "Talasari Beach",
    "state": "Odisha",
    "lat": 21.7239,
    "lon": 85.4744,
    "popularity": "high"
  },
  {
    "id": 94,
    "name": "Chandrabhaga Beach",
    "state": "Odisha",
    "lat": 21.135,
    "lon": 84.7211,
    "popularity": "low"
  },
  {
    "id": 95,
    "name": "Astaranga Beach",
    "state": "Odisha",
    "lat": 21.3565,
    "lon": 85.4313,
    "popularity": "low"
  },
  {
    "id": 96,
    "name": "Radhanagar Beach",
    "state": "Andaman",
    "lat": 12.192,
    "lon": 91.6729,
    "popularity": "high"
  },
  {
    "id": 97,
    "name": "Elephant Beach",
    "state": "Andaman",
    "lat": 12.4817,
    "lon": 92.383,
    "popularity": "low"
  },
  {
    "id": 98,
    "name": "Kala Pathar Beach",
    "state": "Andaman",
    "lat": 12.4546,
    "lon": 92.2895,
    "popularity": "low"
  },
  {
    "id": 99,
    "name": "Corbyn's Cove Beach",
    "state": "Andaman",
    "lat": 11.2635,
    "lon": 91.7359,
    "popularity": "high"
  },
  {
    "id": 100,
    "name": "Wandoor Beach",
    "state": "Andaman",
    "lat": 12.031,
    "lon": 93.353,
    "popularity": "low"
  },
  {
    "id": 101,
    "name": "Digha Beach",
    "state": "West Bengal",
    "lat": 22.3517,
    "lon": 88.2706,
    "popularity": "low"
  },
  {
    "id": 102,
    "name": "Mandarmani Beach",
    "state": "West Bengal",
    "lat": 22.6664,
    "lon": 88.0841,
    "popularity": "low"
  },
  {
    "id": 103,
    "name": "Tajpur Beach",
    "state": "West Bengal",
    "lat": 23.1052,
    "lon": 87.3959,
    "popularity": "high"
  },
  {
    "id": 104,
    "name": "Shankarpur Beach",
    "state": "West Bengal",
    "lat": 22.2133,
    "lon": 87.4815,
    "popularity": "low"
  },
  {
    "id": 105,
    "name": "Bakkhali Beach",
    "state": "West Bengal",
    "lat": 22.209,
    "lon": 88.5867,
    "popularity": "high"
  }
]