[
  {
    "id": 1,
    "name": "Baga Beach",
    "state": "Goa",
    "lat": 15.5553,
    "lon": 73.7517,
    "popularity": "medium"
  },
  {
    "id": 2,
    "name": "Calangute Beach",
    "state": "Goa",
    "lat": 15.5494,
    "lon": 73.7536,
    "popularity": "low"
  },
  {
    "id": 3,
    "name": "Anjuna Beach",
    "state": "Goa",
    "lat": 15.5793,
    "lon": 73.7384,
    "popularity": "medium"
  },
  {
    "id": 4,
    "name": "Vagator Beach",
    "state": "Goa",
    "lat": 15.603,
    "lon": 73.7336,
    "popularity": "medium"
  },
  {
    "id": 5,
    "name": "Palolem Beach",
    "state": "Goa",
    "lat": 15.01,
    "lon": 74.0232,
    "popularity": "medium"
  },
  {
    "id": 6,
    "name": "Arambol Beach",
    "state": "Goa",
    "lat": 15.6847,
    "lon": 73.7033,
    "popularity": "low"
  },
  {
    "id": 7,
    "name": "Morjim Beach",
    "state": "Goa",
    "lat": 15.6174,
    "lon": 73.7338,
    "popularity": "low"
  },
  {
    "id": 8,
    "name": "Colva Beach",
    "state": "Goa",
    "lat": 15.2813,
    "lon": 73.9105,
    "popularity": "medium"
  },
  {
    "id": 9,
    "name": "Benaulim Beach",
    "state": "Goa",
    "lat": 15.2588,
    "lon": 73.9189,
    "popularity": "high"
  },
  {
    "id": 10,
    "name": "Agonda Beach",
    "state": "Goa",
    "lat": 15.0427,
    "lon": 73.9877,
    "popularity": "high"
  },
  {
    "id": 11,
    "name": "Kovalam Beach",
    "state": "Kerala",
    "lat": 8.3988,
    "lon": 76.9785,
    "popularity": "medium"
  },
  {
    "id": 12,
    "name": "Varkala Beach",
    "state": "Kerala",
    "lat": 8.7339,
    "lon": 76.7067,
    "popularity": "medium"
  },
  {
    "id": 13,
    "name": "Marari Beach",
    "state": "Kerala",
    "lat": 9.596,
    "lon": 76.3006,
    "popularity": "high"
  },
  {
    "id": 14,
    "name": "Cherai Beach",
    "state": "Kerala",
    "lat": 10.1416,
    "lon": 76.1783,
    "popularity": "high"
  },
  {
    "id": 15,
    "name": "Bekal Beach",
    "state": "Kerala",
    "lat": 12.3942,
    "lon": 75.0298,
    "popularity": "medium"
  },
  {
    "id": 16,
    "name": "Muzhappilangad Beach",
    "state": "Kerala",
    "lat": 11.7928,
    "lon": 75.4484,
    "popularity": "high"
  },
  {
    "id": 17,
    "name": "Alappuzha Beach",
    "state": "Kerala",
    "lat": 9.4981,
    "lon": 76.3262,
    "popularity": "low"
  },
  {
    "id": 18,
    "name": "Gokarna Beach",
    "state": "Karnataka",
    "lat": 14.5427,
    "lon": 74.3168,
    "popularity": "low"
  },
  {
    "id": 19,
    "name": "Om Beach",
    "state": "Karnataka",
    "lat": 14.5192,
    "lon": 74.3187,
    "popularity": "medium"
  },
  {
    "id": 20,
    "name": "Kudle Beach",
    "state": "Karnataka",
    "lat": 14.5303,
    "lon": 74.3142,
    "popularity": "medium"
  },
  {
    "id": 21,
    "name": "Murudeshwar Beach",
    "state": "Karnataka",
    "lat": 14.0939,
    "lon": 74.4849,
    "popularity": "low"
  },
  {
    "id": 22,
    "name": "Malpe Beach",
    "state": "Karnataka",
    "lat": 13.3512,
    "lon": 74.6998,
    "popularity": "high"
  },
  {
    "id": 23,
    "name": "Maravanthe Beach",
    "state": "Karnataka",
    "lat": 13.7196,
    "lon": 74.6341,
    "popularity": "low"
  },
  {
    "id": 24,
    "name": "Marina Beach",
    "state": "Tamil Nadu",
    "lat": 13.05,
    "lon": 80.2824,
    "popularity": "low"
  },
  {
    "id": 25,
    "name": "Elliot's Beach",
    "state": "Tamil Nadu",
    "lat": 12.9996,
    "lon": 80.2709,
    "popularity": "low"
  },
  {
    "id": 26,
    "name": "Mahabalipuram Beach",
    "state": "Tamil Nadu",
    "lat": 12.6196,
    "lon": 80.1983,
    "popularity": "high"
  },
  {
    "id": 27,
    "name": "Kanyakumari Beach",
    "state": "Tamil Nadu",
    "lat": 8.0833,
    "lon": 77.55,
    "popularity": "low"
  },
  {
    "id": 28,
    "name": "Dhanushkodi Beach",
    "state": "Tamil Nadu",
    "lat": 9.2274,
    "lon": 79.3142,
    "popularity": "medium"
  },
  {
    "id": 29,
    "name": "Juhu Beach",
    "state": "Maharashtra",
    "lat": 19.0988,
    "lon": 72.8267,
    "popularity": "high"
  },
  {
    "id": 30,
    "name": "Alibaug Beach",
    "state": "Maharashtra",
    "lat": 18.6414,
    "lon": 72.8722,
    "popularity": "low"
  },
  {
    "id": 31,
    "name": "Kashid Beach",
    "state": "Maharashtra",
    "lat": 18.4357,
    "lon": 72.8988,
    "popularity": "high"
  },
  {
    "id": 32,
    "name": "Ganpatipule Beach",
    "state": "Maharashtra",
    "lat": 17.1432,
    "lon": 73.2687,
    "popularity": "medium"
  },
  {
    "id": 33,
    "name": "Tarkarli Beach",
    "state": "Maharashtra",
    "lat": 16.0357,
    "lon": 73.48,
    "popularity": "medium"
  },
  {
    "id": 34,
    "name": "Puri Beach",
    "state": "Odisha",
    "lat": 19.7983,
    "lon": 85.8245,
    "popularity": "medium"
  },
  {
    "id": 35,
    "name": "Chandipur Beach",
    "state": "Odisha",
    "lat": 21.4428,
    "lon": 87.018,
    "popularity": "high"
  },
  {
    "id": 36,
    "name": "Gopalpur Beach",
    "state": "Odisha",
    "lat": 19.2612,
    "lon": 84.908,
    "popularity": "high"
  },
  {
    "id": 37,
    "name": "Chandrabhaga Beach",
    "state": "Odisha",
    "lat": 19.8669,
    "lon": 86.1154,
    "popularity": "medium"
  },
  {
    "id": 38,
    "name": "Radhanagar Beach",
    "state": "Andaman",
    "lat": 11.9839,
    "lon": 92.9507,
    "popularity": "high"
  },
  {
    "id": 39,
    "name": "Elephant Beach",
    "state": "Andaman",
    "lat": 12.0016,
    "lon": 92.9431,
    "popularity": "medium"
  },
  {
    "id": 40,
    "name": "Corbyn's Cove Beach",
    "state": "Andaman",
    "lat": 11.6371,
    "lon": 92.7483,
    "popularity": "high"
  },
  {
    "id": 41,
    "name": "Digha Beach",
    "state": "West Bengal",
    "lat": 21.6266,
    "lon": 87.5074,
    "popularity": "low"
  },
  {
    "id": 42,
    "name": "Mandarmani Beach",
    "state": "West Bengal",
    "lat": 21.6669,
    "lon": 87.6833,
    "popularity": "low"
  },
  {
    "id": 43,
    "name": "Tajpur Beach",
    "state": "West Bengal",
    "lat": 21.6545,
    "lon": 87.6047,
    "popularity": "high"
  },
  {
    "id": 44,
    "name": "Baga (South) Beach",
    "state": "Goa",
    "lat": 15.5594,
    "lon": 73.7513,
    "popularity": "low"
  },
  {
    "id": 45,
    "name": "Mandarmani (South) Beach",
    "state": "West Bengal",
    "lat": 21.6714,
    "lon": 87.6878,
    "popularity": "low"
  },
  {
    "id": 46,
    "name": "Radhanagar (South) Beach",
    "state": "Andaman",
    "lat": 11.9829,
    "lon": 92.9474,
    "popularity": "low"
  },
  {
    "id": 47,
    "name": "Agonda (South) Beach",
    "state": "Goa",
    "lat": 15.0494,
    "lon": 73.9909,
    "popularity": "low"
  },
  {
    "id": 48,
    "name": "Kashid (South) Beach",
    "state": "Maharashtra",
    "lat": 18.4321,
    "lon": 72.9001,
    "popularity": "low"
  },
  {
    "id": 49,
    "name": "Juhu (South) Beach",
    "state": "Maharashtra",
    "lat": 19.1047,
    "lon": 72.8329,
    "popularity": "low"
  },
  {
    "id": 50,
    "name": "Muzhappilangad (South) Beach",
    "state": "Kerala",
    "lat": 11.7846,
    "lon": 75.4423,
    "popularity": "low"
  },
  {
    "id": 51,
    "name": "Om (South) Beach",
    "state": "Karnataka",
    "lat": 14.5175,
    "lon": 74.3219,
    "popularity": "low"
  },
  {
    "id": 52,
    "name": "Kanyakumari (South) Beach",
    "state": "Tamil Nadu",
    "lat": 8.093,
    "lon": 77.5496,
    "popularity": "low"
  },
  {
    "id": 53,
    "name": "Vagator (South) Beach",
    "state": "Goa",
    "lat": 15.5952,
    "lon": 73.7416,
    "popularity": "low"
  },
  {
    "id": 54,
    "name": "Kudle (South) Beach",
    "state": "Karnataka",
    "lat": 14.526,
    "lon": 74.3046,
    "popularity": "low"
  },
  {
    "id": 55,
    "name": "Corbyn's Cove (South) Beach",
    "state": "Andaman",
    "lat": 11.6454,
    "lon": 92.7447,
    "popularity": "low"
  },
  {
    "id": 56,
    "name": "Marina (South) Beach",
    "state": "Tamil Nadu",
    "lat": 13.0473,
    "lon": 80.2812,
    "popularity": "low"
  },
  {
    "id": 57,
    "name": "Palolem (South) Beach",
    "state": "Goa",
    "lat": 15.006,
    "lon": 74.014,
    "popularity": "low"
  },
  {
    "id": 58,
    "name": "Arambol (South) Beach",
    "state": "Goa",
    "lat": 15.6823,
    "lon": 73.6961,
    "popularity": "low"
  },
  {
    "id": 59,
    "name": "Colva (South) Beach",
    "state": "Goa",
    "lat": 15.2802,
    "lon": 73.9153,
    "popularity": "low"
  },
  {
    "id": 60,
    "name": "Elliot's (South) Beach",
    "state": "Tamil Nadu",
    "lat": 13.0078,
    "lon": 80.2707,
    "popularity": "low"
  },
  {
    "id": 61,
    "name": "Kudle (South) Beach",
    "state": "Karnataka",
    "lat": 14.5299,
    "lon": 74.3084,
    "popularity": "low"
  },
  {
    "id": 62,
    "name": "Varkala (South) Beach",
    "state": "Kerala",
    "lat": 8.7437,
    "lon": 76.7106,
    "popularity": "low"
  },
  {
    "id": 63,
    "name": "Elephant (South) Beach",
    "state": "Andaman",
    "lat": 12.0047,
    "lon": 92.9372,
    "popularity": "low"
  },
  {
    "id": 64,
    "name": "Gopalpur (South) Beach",
    "state": "Odisha",
    "lat": 19.2601,
    "lon": 84.9018,
    "popularity": "low"
  },
  {
    "id": 65,
    "name": "Dhanushkodi (South) Beach",
    "state": "Tamil Nadu",
    "lat": 9.2235,
    "lon": 79.3048,
    "popularity": "low"
  },
  {
    "id": 66,
    "name": "Chandipur (South) Beach",
    "state": "Odisha",
    "lat": 21.4399,
    "lon": 87.0233,
    "popularity": "low"
  },
  {
    "id": 67,
    "name": "Tarkarli (South) Beach",
    "state": "Maharashtra",
    "lat": 16.0391,
    "lon": 73.4756,
    "popularity": "low"
  },
  {
    "id": 68,
    "name": "Alappuzha (South) Beach",
    "state": "Kerala",
    "lat": 9.4921,
    "lon": 76.3315,
    "popularity": "low"
  },
  {
    "id": 69,
    "name": "Mahabalipuram (South) Beach",
    "state": "Tamil Nadu",
    "lat": 12.6206,
    "lon": 80.1994,
    "popularity": "low"
  },
  {
    "id": 70,
    "name": "Om (South) Beach",
    "state": "Karnataka",
    "lat": 14.5153,
    "lon": 74.3257,
    "popularity": "low"
  },
  {
    "id": 71,
    "name": "Colva (South) Beach",
    "state": "Goa",
    "lat": 15.2836,
    "lon": 73.9099,
    "popularity": "low"
  },
  {
    "id": 72,
    "name": "Marari (South) Beach",
    "state": "Kerala",
    "lat": 9.5893,
    "lon": 76.2999,
    "popularity": "low"
  },
  {
    "id": 73,
    "name": "Bekal (South) Beach",
    "state": "Kerala",
    "lat": 12.3914,
    "lon": 75.0374,
    "popularity": "low"
  },
  {
    "id": 74,
    "name": "Alibaug (South) Beach",
    "state": "Maharashtra",
    "lat": 18.6316,
    "lon": 72.8659,
    "popularity": "low"
  },
  {
    "id": 75,
    "name": "Tajpur (South) Beach",
    "state": "West Bengal",
    "lat": 21.6496,
    "lon": 87.5956,
    "popularity": "low"
  },
  {
    "id": 76,
    "name": "Ganpatipule (South) Beach",
    "state": "Maharashtra",
    "lat": 17.1527,
    "lon": 73.2652,
    "popularity": "low"
  },
  {
    "id": 77,
    "name": "Alibaug (South) Beach",
    "state": "Maharashtra",
    "lat": 18.6322,
    "lon": 72.8773,
    "popularity": "low"
  },
  {
    "id": 78,
    "name": "Alibaug (South) Beach",
    "state": "Maharashtra",
    "lat": 18.6383,
    "lon": 72.8748,
    "popularity": "low"
  },
  {
    "id": 79,
    "name": "Kudle (South) Beach",
    "state": "Karnataka",
    "lat": 14.5217,
    "lon": 74.3069,
    "popularity": "low"
  },
  {
    "id": 80,
    "name": "Alappuzha (South) Beach",
    "state": "Kerala",
    "lat": 9.5078,
    "lon": 76.3264,
    "popularity": "low"
  },
  {
    "id": 81,
    "name": "Marari (South) Beach",
    "state": "Kerala",
    "lat": 9.5891,
    "lon": 76.3079,
    "popularity": "low"
  },
  {
    "id": 82,
    "name": "Gokarna (South) Beach",
    "state": "Karnataka",
    "lat": 14.5482,
    "lon": 74.3125,
    "popularity": "low"
  },
  {
    "id": 83,
    "name": "Kashid (South) Beach",
    "state": "Maharashtra",
    "lat": 18.4439,
    "lon": 72.8925,
    "popularity": "low"
  },
  {
    "id": 84,
    "name": "Mandarmani (South) Beach",
    "state": "West Bengal",
    "lat": 21.6752,
    "lon": 87.678,
    "popularity": "low"
  },
  {
    "id": 85,
    "name": "Mandarmani (South) Beach",
    "state": "West Bengal",
    "lat": 21.6582,
    "lon": 87.6813,
    "popularity": "low"
  },
  {
    "id": 86,
    "name": "Marina (South) Beach",
    "state": "Tamil Nadu",
    "lat": 13.0504,
    "lon": 80.278,
    "popularity": "low"
  },
  {
    "id": 87,
    "name": "Arambol (South) Beach",
    "state": "Goa",
    "lat": 15.6874,
    "lon": 73.7079,
    "popularity": "low"
  },
  {
    "id": 88,
    "name": "Murudeshwar (South) Beach",
    "state": "Karnataka",
    "lat": 14.0862,
    "lon": 74.4818,
    "popularity": "low"
  },
  {
    "id": 89,
    "name": "Calangute (South) Beach",
    "state": "Goa",
    "lat": 15.5505,
    "lon": 73.7503,
    "popularity": "low"
  },
  {
    "id": 90,
    "name": "Om (South) Beach",
    "state": "Karnataka",
    "lat": 14.512,
    "lon": 74.32,
    "popularity": "low"
  },
  {
    "id": 91,
    "name": "Marina (South) Beach",
    "state": "Tamil Nadu",
    "lat": 13.0458,
    "lon": 80.2921,
    "popularity": "low"
  },
  {
    "id": 92,
    "name": "Corbyn's Cove (South) Beach",
    "state": "Andaman",
    "lat": 11.6343,
    "lon": 92.753,
    "popularity": "low"
  },
  {
    "id": 93,
    "name": "Marina (South) Beach",
    "state": "Tamil Nadu",
    "lat": 13.0529,
    "lon": 80.2849,
    "popularity": "low"
  },
  {
    "id": 94,
    "name": "Palolem (South) Beach",
    "state": "Goa",
    "lat": 15.0112,
    "lon": 74.0168,
    "popularity": "low"
  },
  {
    "id": 95,
    "name": "Kashid (South) Beach",
    "state": "Maharashtra",
    "lat": 18.4316,
    "lon": 72.8951,
    "popularity": "low"
  },
  {
    "id": 96,
    "name": "Radhanagar (South) Beach",
    "state": "Andaman",
    "lat": 11.9826,
    "lon": 92.9437,
    "popularity": "low"
  },
  {
    "id": 97,
    "name": "Tarkarli (South) Beach",
    "state": "Maharashtra",
    "lat": 16.0354,
    "lon": 73.48,
    "popularity": "low"
  },
  {
    "id": 98,
    "name": "Gopalpur (South) Beach",
    "state": "Odisha",
    "lat": 19.2538,
    "lon": 84.916,
    "popularity": "low"
  },
  {
    "id": 99,
    "name": "Palolem (South) Beach",
    "state": "Goa",
    "lat": 15.0022,
    "lon": 74.0165,
    "popularity": "low"
  },
  {
    "id": 100,
    "name": "Kashid (South) Beach",
    "state": "Maharashtra",
    "lat": 18.4297,
    "lon": 72.9017,
    "popularity": "low"
  },
  {
    "id": 101,
    "name": "Kovalam (South) Beach",
    "state": "Kerala",
    "lat": 8.407,
    "lon": 76.9713,
    "popularity": "low"
  },
  {
    "id": 102,
    "name": "Agonda (South) Beach",
    "state": "Goa",
    "lat": 15.0421,
    "lon": 73.9936,
    "popularity": "low"
  },
  {
    "id": 103,
    "name": "Mahabalipuram (South) Beach",
    "state": "Tamil Nadu",
    "lat": 12.6247,
    "lon": 80.1961,
    "popularity": "low"
  },
  {
    "id": 104,
    "name": "Elephant (South) Beach",
    "state": "Andaman",
    "lat": 11.9956,
    "lon": 92.9375,
    "popularity": "low"
  },
  {
    "id": 105,
    "name": "Mahabalipuram (South) Beach",
    "state": "Tamil Nadu",
    "lat": 12.6173,
    "lon": 80.1909,
    "popularity": "low"
  }
]