[
  {
    "id": 1,
    "name": "Baga Beach",
    "state": "Goa",
    "lat": 15.5553,
    "lon": 73.7517,
    "popularity": "medium"
  },
  {
    "id": 2,
    "name": "Calangute Beach",
    "state": "Goa",
    "lat": 15.5494,
    "lon": 73.7536,
    "popularity": "low"
  },
  {
    "id": 3,
    "name": "Anjuna Beach",
    "state": "Goa",
    "lat": 15.5793,
    "lon": 73.7384,
    "popularity": "medium"
  },
  {
    "id": 4,
    "name": "Vagator Beach",
    "state": "Goa",
    "lat": 15.603,
    "lon": 73.7336,
    "popularity": "medium"
  },
  {
    "id": 5,
    "name": "Palolem Beach",
    "state": "Goa",
    "lat": 15.01,
    "lon": 74.0232,
    "popularity": "medium"
  },
  {
    "id": 6,
    "name": "Arambol Beach",
    "state": "Goa",
    "lat": 15.6847,
    "lon": 73.7033,
    "popularity": "low"
  },
  {
    "id": 7,
    "name": "Morjim Beach",
    "state": "Goa",
    "lat": 15.6174,
    "lon": 73.7338,
    "popularity": "low"
  },
  {
    "id": 8,
    "name": "Colva Beach",
    "state": "Goa",
    "lat": 15.2813,
    "lon": 73.9105,
    "popularity": "medium"
  },
  {
    "id": 9,
    "name": "Benaulim Beach",
    "state": "Goa",
    "lat": 15.2588,
    "lon": 73.9189,
    "popularity": "high"
  },
  {
    "id": 10,
    "name": "Agonda Beach",
    "state": "Goa",
    "lat": 15.0427,
    "lon": 73.9877,
    "popularity": "high"
  },
  {
    "id": 11,
    "name": "Kovalam Beach",
    "state": "Kerala",
    "lat": 8.3988,
    "lon": 76.9785,
    "popularity": "medium"
  },
  {
    "id": 12,
    "name": "Varkala Beach",
    "state": "Kerala",
    "lat": 8.7339,
    "lon": 76.7067,
    "popularity": "medium"
  },
  {
    "id": 13,
    "name": "Marari Beach",
    "state": "Kerala",
    "lat": 9.596,
    "lon": 76.3006,
    "popularity": "high"
  },
  {
    "id": 14,
    "name": "Cherai Beach",
    "state": "Kerala",
    "lat": 10.1416,
    "lon": 76.1783,
    "popularity": "high"
  },
  {
    "id": 15,
    "name": "Bekal Beach",
    "state": "Kerala",
    "lat": 12.3942,
    "lon": 75.0298,
    "popularity": "medium"
  },
  {
    "id": 16,
    "name": "Muzhappilangad Beach",
    "state": "Kerala",
    "lat": 11.7928,
    "lon": 75.4484,
    "popularity": "high"
  },
  {
    "id": 17,
    "name": "Alappuzha Beach",
    "state": "Kerala",
    "lat": 9.4981,
    "lon": 76.3262,
    "popularity": "low"
  },
  {
    "id": 18,
    "name": "Gokarna Beach",
    "state": "Karnataka",
    "lat": 14.5427,
    "lon": 74.3168,
    "popularity": "low"
  },
  {
    "id": 19,
    "name": "Om Beach",
    "state": "Karnataka",
    "lat": 14.5192,
    "lon": 74.3187,
    "popularity": "medium"
  },
  {
    "id": 20,
    "name": "Kudle Beach",
    "state": "Karnataka",
    "lat": 14.5303,
    "lon": 74.3142,
    "popularity": "medium"
  },
  {
    "id": 21,
    "name": "Murudeshwar Beach",
    "state": "Karnataka",
    "lat": 14.0939,
    "lon": 74.4849,
    "popularity": "low"
  },
  {
    "id": 22,
    "name": "Malpe Beach",
    "state": "Karnataka",
    "lat": 13.3512,
    "lon": 74.6998,
    "popularity": "high"
  },
  {
    "id": 23,
    "name": "Maravanthe Beach",
    "state": "Karnataka",
    "lat": 13.7196,
    "lon": 74.6341,
    "popularity": "low"
  },
  {
    "id": 24,
    "name": "Marina Beach",
    "state": "Tamil Nadu",
    "lat": 13.05,
    "lon": 80.2824,
    "popularity": "low"
  },
  {
    "id": 25,
    "name": "Elliot's Beach",
    "state": "Tamil Nadu",
    "lat": 12.9996,
    "lon": 80.2709,
    "popularity": "low"
  },
  {
    "id": 26,
    "name": "Mahabalipuram Beach",
    "state": "Tamil Nadu",
    "lat": 12.6196,
    "lon": 80.1983,
    "popularity": "high"
  },
  {
    "id": 27,
    "name": "Kanyakumari Beach",
    "state": "Tamil Nadu",
    "lat": 8.0833,
    "lon": 77.55,
    "popularity": "low"
  },
  {
    "id": 28,
    "name": "Dhanushkodi Beach",
    "state": "Tamil Nadu",
    "lat": 9.2274,
    "lon": 79.3142,
    "popularity": "medium"
  },
  {
    "id": 29,
    "name": "Juhu Beach",
    "state": "Maharashtra",
    "lat": 19.0988,
    "lon": 72.8267,
    "popularity": "high"
  },
  {
    "id": 30,
    "name": "Alibaug Beach",
    "state": "Maharashtra",
    "lat": 18.6414,
    "lon": 72.8722,
    "popularity": "low"
  },
  {
    "id": 31,
    "name": "Kashid Beach",
    "state": "Maharashtra",
    "lat": 18.4357,
    "lon": 72.8988,
    "popularity": "high"
  },
  {
    "id": 32,
    "name": "Ganpatipule Beach",
    "state": "Maharashtra",
    "lat": 17.1432,
    "lon": 73.2687,
    "popularity": "medium"
  },
  {
    "id": 33,
    "name": "Tarkarli Beach",
    "state": "Maharashtra",
    "lat": 16.0357,
    "lon": 73.48,
    "popularity": "medium"
  },
  {
    "id": 34,
    "name": "Puri Beach",
    "state": "Odisha",
    "lat": 19.7983,
    "lon": 85.8245,
    "popularity": "medium"
  },
  {
    "id": 35,
    "name": "Chandipur Beach",
    "state": "Odisha",
    "lat": 21.4428,
    "lon": 87.018,
    "popularity": "high"
  },
  {
    "id": 36,
    "name": "Gopalpur Beach",
    "state": "Odisha",
    "lat": 19.2612,
    "lon": 84.908,
    "popularity": "high"
  },
  {
    "id": 37,
    "name": "Chandrabhaga Beach",
    "state": "Odisha",
    "lat": 19.8669,
    "lon": 86.1154,
    "popularity": "medium"
  },
  {
    "id": 38,
    "name": "Radhanagar Beach",
    "state": "Andaman",
    "lat": 11.9839,
    "lon": 92.9507,
    "popularity": "high"
  },
  {
    "id": 39,
    "name": "Elephant Beach",
    "state": "Andaman",
    "lat": 12.0016,
    "lon": 92.9431,
    "popularity": "medium"
  },
  {
    "id": 40,
    "name": "Corbyn's Cove Beach",
    "state": "Andaman",
    "lat": 11.6371,
    "lon": 92.7483,
    "popularity": "high"
  },
  {
    "id": 41,
    "name": "Digha Beach",
    "state": "West Bengal",
    "lat": 21.6266,
    "lon": 87.5074,
    "popularity": "low"
  },
  {
    "id": 42,
    "name": "Mandarmani Beach",
    "state": "West Bengal",
    "lat": 21.6669,
    "lon": 87.6833,
    "popularity": "low"
  },
  {
    "id": 43,
    "name": "Tajpur Beach",
    "state": "West Bengal",
    "lat": 21.6545,
    "lon": 87.6047,
    "popularity": "high"
  },
  {
    "name": "Rushikonda Beach",
    "state": "Andhra Pradesh",
    "lat": 17.7833,
    "lon": 83.385,
    "crowd": "moderate",
    "waveHeight": 1.2,
    "temp": 30,
    "popularity": "medium",
    "id": 44
  },
  {
    "name": "Yarada Beach",
    "state": "Andhra Pradesh",
    "lat": 17.658,
    "lon": 83.267,
    "crowd": "moderate",
    "waveHeight": 1.2,
    "temp": 30,
    "popularity": "medium",
    "id": 45
  },
  {
    "name": "Kakinada Beach",
    "state": "Andhra Pradesh",
    "lat": 16.9891,
    "lon": 82.2475,
    "crowd": "moderate",
    "waveHeight": 1.2,
    "temp": 30,
    "popularity": "medium",
    "id": 46
  },
  {
    "name": "Aksa Beach",
    "state": "Maharashtra",
    "lat": 19.18,
    "lon": 72.79,
    "crowd": "moderate",
    "waveHeight": 1.2,
    "temp": 30,
    "popularity": "high",
    "sustainabilityScore": 83,
    "id": 47
  },
  {
    "name": "Anjarle Beach",
    "state": "Maharashtra",
    "lat": 17.85,
    "lon": 73.1,
    "crowd": "moderate",
    "waveHeight": 1.2,
    "temp": 30,
    "popularity": "high",
    "sustainabilityScore": 78,
    "id": 48
  },
  {
    "name": "Bordi Beach",
    "state": "Maharashtra",
    "lat": 20.12,
    "lon": 72.74,
    "crowd": "moderate",
    "waveHeight": 1.2,
    "temp": 30,
    "popularity": "high",
    "sustainabilityScore": 88,
    "id": 49
  },
  {
    "name": "Chivla Beach",
    "state": "Maharashtra",
    "lat": 16.05,
    "lon": 73.48,
    "crowd": "moderate",
    "waveHeight": 1.2,
    "temp": 30,
    "popularity": "high",
    "sustainabilityScore": 93,
    "id": 50
  },
  {
    "name": "Dapoli Beach",
    "state": "Maharashtra",
    "lat": 17.76,
    "lon": 73.19,
    "crowd": "moderate",
    "waveHeight": 1.2,
    "temp": 30,
    "popularity": "high",
    "sustainabilityScore": 77,
    "id": 51
  },
  {
    "name": "Diveagar Beach",
    "state": "Maharashtra",
    "lat": 18.17,
    "lon": 72.99,
    "crowd": "moderate",
    "waveHeight": 1.2,
    "temp": 30,
    "popularity": "high",
    "sustainabilityScore": 81,
    "id": 52
  },
  {
    "name": "Guhagar Beach",
    "state": "Maharashtra",
    "lat": 17.48,
    "lon": 73.2,
    "crowd": "moderate",
    "waveHeight": 1.2,
    "temp": 30,
    "popularity": "high",
    "sustainabilityScore": 93,
    "id": 53
  },
  {
    "name": "Kappad Beach",
    "state": "Kerala",
    "lat": 11.38,
    "lon": 75.71,
    "crowd": "moderate",
    "waveHeight": 1.2,
    "temp": 30,
    "popularity": "high",
    "sustainabilityScore": 91,
    "id": 54
  },
  {
    "name": "Kozhikode Beach",
    "state": "Kerala",
    "lat": 11.25,
    "lon": 75.78,
    "crowd": "moderate",
    "waveHeight": 1.2,
    "temp": 30,
    "popularity": "high",
    "sustainabilityScore": 82,
    "id": 55
  },
  {
    "name": "Payyambalam Beach",
    "state": "Kerala",
    "lat": 11.87,
    "lon": 75.36,
    "crowd": "moderate",
    "waveHeight": 1.2,
    "temp": 30,
    "popularity": "high",
    "sustainabilityScore": 75,
    "id": 56
  },
  {
    "name": "Karwar Beach",
    "state": "Karnataka",
    "lat": 14.8,
    "lon": 74.12,
    "crowd": "moderate",
    "waveHeight": 1.2,
    "temp": 30,
    "popularity": "high",
    "sustainabilityScore": 86,
    "id": 57
  },
  {
    "name": "Kaup Beach",
    "state": "Karnataka",
    "lat": 13.34,
    "lon": 74.73,
    "crowd": "moderate",
    "waveHeight": 1.2,
    "temp": 30,
    "popularity": "high",
    "sustainabilityScore": 81,
    "id": 58
  },
  {
    "name": "Shankarpur Beach",
    "state": "West Bengal",
    "lat": 21.62,
    "lon": 87.55,
    "crowd": "moderate",
    "waveHeight": 1.2,
    "temp": 30,
    "popularity": "high",
    "sustainabilityScore": 75,
    "id": 59
  },
  {
    "name": "Rameswaram Beach",
    "state": "Tamil Nadu",
    "lat": 9.28,
    "lon": 79.31,
    "crowd": "moderate",
    "waveHeight": 1.2,
    "temp": 30,
    "popularity": "high",
    "sustainabilityScore": 81,
    "id": 60
  },
  {
    "name": "Wandoor Beach",
    "state": "Andaman",
    "lat": 11.62,
    "lon": 92.61,
    "crowd": "moderate",
    "waveHeight": 1.2,
    "temp": 30,
    "popularity": "high",
    "sustainabilityScore": 86,
    "id": 61
  },
  {
    "name": "Majorda Beach",
    "state": "Goa",
    "lat": 15.31,
    "lon": 73.9,
    "crowd": "moderate",
    "waveHeight": 1.2,
    "temp": 30,
    "popularity": "high",
    "sustainabilityScore": 84,
    "id": 62
  },
  {
    "name": "Cavelossim Beach",
    "state": "Goa",
    "lat": 15.17,
    "lon": 73.94,
    "crowd": "moderate",
    "waveHeight": 1.2,
    "temp": 30,
    "popularity": "high",
    "sustainabilityScore": 83,
    "id": 63
  },
  {
    "name": "Candolim Beach",
    "state": "Goa",
    "lat": 15.51,
    "lon": 73.76,
    "crowd": "moderate",
    "waveHeight": 1.2,
    "temp": 30,
    "popularity": "high",
    "sustainabilityScore": 75,
    "id": 64
  },
  {
    "name": "Sinquerim Beach",
    "state": "Goa",
    "lat": 15.49,
    "lon": 73.76,
    "crowd": "moderate",
    "waveHeight": 1.2,
    "temp": 30,
    "popularity": "high",
    "sustainabilityScore": 95,
    "id": 65
  },
  {
    "name": "Varca Beach",
    "state": "Goa",
    "lat": 15.22,
    "lon": 73.93,
    "crowd": "moderate",
    "waveHeight": 1.2,
    "temp": 30,
    "popularity": "high",
    "sustainabilityScore": 82,
    "id": 66
  },
  {
    "name": "Kappil Beach",
    "state": "Kerala",
    "lat": 8.76,
    "lon": 76.68,
    "crowd": "moderate",
    "waveHeight": 1.2,
    "temp": 30,
    "popularity": "high",
    "sustainabilityScore": 89,
    "id": 67
  },
  {
    "name": "Half Moon Beach",
    "state": "Karnataka",
    "lat": 14.52,
    "lon": 74.32,
    "crowd": "moderate",
    "waveHeight": 1.2,
    "temp": 30,
    "popularity": "high",
    "sustainabilityScore": 85,
    "id": 68
  },
  {
    "name": "Paradise Beach",
    "state": "Karnataka",
    "lat": 14.53,
    "lon": 74.33,
    "crowd": "moderate",
    "waveHeight": 1.2,
    "temp": 30,
    "popularity": "high",
    "sustainabilityScore": 91,
    "id": 69
  },
  {
    "name": "Panambur Beach",
    "state": "Karnataka",
    "lat": 12.93,
    "lon": 74.8,
    "crowd": "moderate",
    "waveHeight": 1.2,
    "temp": 30,
    "popularity": "high",
    "sustainabilityScore": 75,
    "id": 70
  },
  {
    "name": "Tannirbhavi Beach",
    "state": "Karnataka",
    "lat": 12.89,
    "lon": 74.8,
    "crowd": "moderate",
    "waveHeight": 1.2,
    "temp": 30,
    "popularity": "high",
    "sustainabilityScore": 82,
    "id": 71
  },
  {
    "name": "Surathkal Beach",
    "state": "Karnataka",
    "lat": 13,
    "lon": 74.78,
    "crowd": "moderate",
    "waveHeight": 1.2,
    "temp": 30,
    "popularity": "high",
    "sustainabilityScore": 89,
    "id": 72
  },
  {
    "name": "Covelong Beach",
    "state": "Tamil Nadu",
    "lat": 12.78,
    "lon": 80.25,
    "crowd": "moderate",
    "waveHeight": 1.2,
    "temp": 30,
    "popularity": "high",
    "sustainabilityScore": 84,
    "id": 73
  },
  {
    "name": "Auroville Beach",
    "state": "Pondicherry",
    "lat": 11.97,
    "lon": 79.85,
    "crowd": "moderate",
    "waveHeight": 1.2,
    "temp": 30,
    "popularity": "high",
    "sustainabilityScore": 85,
    "id": 74
  },
  {
    "name": "Serenity Beach",
    "state": "Pondicherry",
    "lat": 11.96,
    "lon": 79.84,
    "crowd": "moderate",
    "waveHeight": 1.2,
    "temp": 30,
    "popularity": "high",
    "sustainabilityScore": 76,
    "id": 75
  },
  {
    "name": "Promenade Beach",
    "state": "Pondicherry",
    "lat": 11.93,
    "lon": 79.83,
    "crowd": "moderate",
    "waveHeight": 1.2,
    "temp": 30,
    "popularity": "high",
    "sustainabilityScore": 86,
    "id": 76
  },
  {
    "name": "Tithal Beach",
    "state": "Gujarat",
    "lat": 20.6,
    "lon": 72.89,
    "crowd": "moderate",
    "waveHeight": 1.2,
    "temp": 30,
    "popularity": "high",
    "sustainabilityScore": 80,
    "id": 77
  },
  {
    "name": "Mandvi Beach",
    "state": "Gujarat",
    "lat": 22.82,
    "lon": 69.34,
    "crowd": "moderate",
    "waveHeight": 1.2,
    "temp": 30,
    "popularity": "high",
    "sustainabilityScore": 77,
    "id": 78
  },
  {
    "name": "Dumas Beach",
    "state": "Gujarat",
    "lat": 21.08,
    "lon": 72.71,
    "crowd": "moderate",
    "waveHeight": 1.2,
    "temp": 30,
    "popularity": "high",
    "sustainabilityScore": 90,
    "id": 79
  },
  {
    "name": "Shivrajpur Beach",
    "state": "Gujarat",
    "lat": 22.33,
    "lon": 68.95,
    "crowd": "moderate",
    "waveHeight": 1.2,
    "temp": 30,
    "popularity": "high",
    "sustainabilityScore": 88,
    "id": 80
  },
  {
    "name": "Versova Beach",
    "state": "Maharashtra",
    "lat": 19.13,
    "lon": 72.81,
    "crowd": "moderate",
    "waveHeight": 1.2,
    "temp": 30,
    "popularity": "high",
    "sustainabilityScore": 88,
    "id": 81
  },
  {
    "name": "Gorai Beach",
    "state": "Maharashtra",
    "lat": 19.24,
    "lon": 72.78,
    "crowd": "moderate",
    "waveHeight": 1.2,
    "temp": 30,
    "popularity": "high",
    "sustainabilityScore": 76,
    "id": 82
  },
  {
    "name": "Marve Beach",
    "state": "Maharashtra",
    "lat": 19.18,
    "lon": 72.79,
    "crowd": "moderate",
    "waveHeight": 1.2,
    "temp": 30,
    "popularity": "high",
    "sustainabilityScore": 78,
    "id": 83
  },
  {
    "name": "Karde Beach",
    "state": "Maharashtra",
    "lat": 17.81,
    "lon": 73.13,
    "crowd": "moderate",
    "waveHeight": 1.2,
    "temp": 30,
    "popularity": "high",
    "sustainabilityScore": 79,
    "id": 84
  },
  {
    "name": "Harihareshwar Beach",
    "state": "Maharashtra",
    "lat": 18.01,
    "lon": 73.01,
    "crowd": "moderate",
    "waveHeight": 1.2,
    "temp": 30,
    "popularity": "high",
    "sustainabilityScore": 75,
    "id": 85
  },
  {
    "name": "Shrivardhan Beach",
    "state": "Maharashtra",
    "lat": 18.05,
    "lon": 73.01,
    "crowd": "moderate",
    "waveHeight": 1.2,
    "temp": 30,
    "popularity": "high",
    "sustainabilityScore": 75,
    "id": 86
  },
  {
    "name": "Murud Beach",
    "state": "Maharashtra",
    "lat": 18.33,
    "lon": 72.96,
    "crowd": "moderate",
    "waveHeight": 1.2,
    "temp": 30,
    "popularity": "high",
    "sustainabilityScore": 79,
    "id": 87
  },
  {
    "name": "Bheemunipatnam Beach",
    "state": "Andhra Pradesh",
    "lat": 17.89,
    "lon": 83.45,
    "crowd": "moderate",
    "waveHeight": 1.2,
    "temp": 30,
    "popularity": "high",
    "sustainabilityScore": 92,
    "id": 88
  },
  {
    "name": "Manginapudi Beach",
    "state": "Andhra Pradesh",
    "lat": 16.23,
    "lon": 81.19,
    "crowd": "moderate",
    "waveHeight": 1.2,
    "temp": 30,
    "popularity": "high",
    "sustainabilityScore": 80,
    "id": 89
  },
  {
    "name": "Suryalanka Beach",
    "state": "Andhra Pradesh",
    "lat": 15.82,
    "lon": 80.51,
    "crowd": "moderate",
    "waveHeight": 1.2,
    "temp": 30,
    "popularity": "high",
    "sustainabilityScore": 92,
    "id": 90
  },
  {
    "name": "Kalingapatnam Beach",
    "state": "Andhra Pradesh",
    "lat": 18.33,
    "lon": 84.12,
    "crowd": "moderate",
    "waveHeight": 1.2,
    "temp": 30,
    "popularity": "high",
    "sustainabilityScore": 79,
    "id": 91
  },
  {
    "name": "Ramakrishna Beach",
    "state": "Andhra Pradesh",
    "lat": 17.71,
    "lon": 83.32,
    "crowd": "moderate",
    "waveHeight": 1.2,
    "temp": 30,
    "popularity": "high",
    "sustainabilityScore": 92,
    "id": 92
  },
  {
    "name": "Vijaynagar Beach",
    "state": "Andaman",
    "lat": 12.01,
    "lon": 93,
    "crowd": "moderate",
    "waveHeight": 1.2,
    "temp": 30,
    "popularity": "high",
    "sustainabilityScore": 82,
    "id": 93
  },
  {
    "name": "Kalapathar Beach",
    "state": "Andaman",
    "lat": 11.97,
    "lon": 93.01,
    "crowd": "moderate",
    "waveHeight": 1.2,
    "temp": 30,
    "popularity": "high",
    "sustainabilityScore": 76,
    "id": 94
  },
  {
    "name": "Laxmanpur Beach",
    "state": "Andaman",
    "lat": 11.83,
    "lon": 92.98,
    "crowd": "moderate",
    "waveHeight": 1.2,
    "temp": 30,
    "popularity": "high",
    "sustainabilityScore": 95,
    "id": 95
  },
  {
    "name": "Bharatpur Beach",
    "state": "Andaman",
    "lat": 11.84,
    "lon": 93.02,
    "crowd": "moderate",
    "waveHeight": 1.2,
    "temp": 30,
    "popularity": "high",
    "sustainabilityScore": 92,
    "id": 96
  },
  {
    "name": "Sitapur Beach",
    "state": "Andaman",
    "lat": 11.81,
    "lon": 93.03,
    "crowd": "moderate",
    "waveHeight": 1.2,
    "temp": 30,
    "popularity": "high",
    "sustainabilityScore": 79,
    "id": 97
  },
  {
    "name": "Sengamal Beach",
    "state": "Tamil Nadu",
    "lat": 9.24,
    "lon": 79.28,
    "crowd": "low",
    "waveHeight": 1,
    "temp": 29,
    "popularity": "medium",
    "sustainabilityScore": 76,
    "id": 98
  },
  {
    "name": "Sothavilai Beach",
    "state": "Tamil Nadu",
    "lat": 8.11,
    "lon": 77.46,
    "crowd": "low",
    "waveHeight": 1,
    "temp": 29,
    "popularity": "medium",
    "sustainabilityScore": 95,
    "id": 99
  },
  {
    "name": "Somnath Beach",
    "state": "Gujarat",
    "lat": 20.88,
    "lon": 70.4,
    "crowd": "low",
    "waveHeight": 1,
    "temp": 29,
    "popularity": "medium",
    "sustainabilityScore": 89,
    "id": 100
  },
  {
    "name": "Beypore Beach",
    "state": "Kerala",
    "lat": 11.16,
    "lon": 75.8,
    "crowd": "low",
    "waveHeight": 1,
    "temp": 29,
    "popularity": "medium",
    "sustainabilityScore": 93,
    "id": 101
  },
  {
    "name": "Nivati Beach",
    "state": "Maharashtra",
    "lat": 15.93,
    "lon": 73.51,
    "crowd": "low",
    "waveHeight": 1,
    "temp": 29,
    "popularity": "medium",
    "sustainabilityScore": 93,
    "id": 102
  }
]